,address,roadName,latitude,longitude
0,Jurong East MRT Station,NIL,1.33400861,103.74173509999999
1,Bukit Batok MRT Station,NIL,1.349360664,103.7499662
2,Bukit Gombak MRT Station,NIL,1.35869439,103.752085
3,Choa Chu Kang MRT Station,NIL,1.3849696919999999,103.74459190000002
4,Yew Tee MRT Station,CHOA CHU KANG DRIVE,1.3975350180000001,103.7474051
5,Kranji MRT Station,NIL,1.4251259490000001,103.7617547
6,Marsiling MRT Station,NIL,1.432807925,103.77420670000001
7,Woodlands MRT Station,NIL,1.437094408,103.78722490000001
8,Admiralty MRT Station,NIL,1.4401624819999999,103.8005272
9,Sembawang MRT Station,NIL,1.448835628,103.8201103
10,Canberra MRT Station,CANBERRA LINK,1.443076641,103.82970259999999
11,Yishun MRT Station,NIL,1.429104039,103.83486579999999
12,Khatib MRT Station,NIL,1.4170363730000002,103.8329527
13,Yio Chu Kang MRT Station,NIL,1.381650385,103.844821
14,Ang Mo Kio MRT Station,ANG MO KIO AVENUE 8,1.369428557,103.84945520000001
15,Bishan MRT Station,BISHAN PLACE,1.3510188980000002,103.85005720000001
16,Braddell MRT Station,LORONG 1 TOA PAYOH,1.3401052070000001,103.8467559
17,Toa Payoh MRT Station,NIL,1.332376442,103.8477238
18,Novena MRT Station,NIL,1.321103004,103.84440579999999
19,Newton MRT Station,SCOTTS ROAD,1.312570317,103.8380316
20,Orchard MRT Station,NIL,1.3041533790000002,103.83277029999999
21,Somerset MRT Station,SOMERSET ROAD,1.3002528770000001,103.8391583
22,Dhoby Ghaut MRT Station,ORCHARD ROAD,1.298810409,103.84634759999999
23,City Hall MRT Station,NORTH BRIDGE ROAD,1.292989907,103.85254259999999
24,Raffles Place MRT Station,RAFFLES PLACE,1.2839332620000001,103.85146309999999
25,Marina Bay MRT Station,PARK STREET,1.2763111440000001,103.854605
26,Marina South Pier MRT Station,NIL,1.270675235,103.86228059999999
27,Pasir Ris MRT Station,NIL,1.372886237,103.94913690000001
28,Tampines MRT Station,NIL,1.3537640130000002,103.9447663
29,Simei MRT Station,NIL,1.342655786,103.95382009999999
30,Tanah Merah MRT Station,NIL,1.3268651000000002,103.9457914
31,Bedok MRT Station,NIL,1.32039876,103.95724200000001
32,Kembangan MRT Station,NIL,1.320929673,103.91294
33,Eunos MRT Station,NIL,1.319517275,103.9028941
34,Paya Lebar MRT Station,NIL,1.318370313,103.8922082
35,Aljunied MRT Station,NIL,1.316238485,103.8824967
36,Kallang MRT Station,NIL,1.31178177,103.8715871
37,Lavender MRT Station,KALLANG ROAD,1.307391879,103.86278459999998
38,Bugis MRT Station,VICTORIA STREET,1.300366506,103.8556367
39,Tanjong Pagar MRT Station,NIL,1.2762671209999998,103.8471021
40,Outram Park MRT Station,EU TONG SEN STREET,1.2802415329999999,103.8400521
41,Tiong Bahru MRT Station,TIONG BAHRU ROAD,1.286194579,103.8269989
42,Redhill MRT Station,NIL,1.289367485,103.8169976
43,Queenstown MRT Station,NIL,1.294250313,103.8061795
44,Commonwealth MRT Station,NIL,1.302757264,103.7980551
45,Buona Vista MRT Station,NORTH BUONA VISTA ROAD,1.306275348,103.7903632
46,Dover MRT Station,NIL,1.311426541,103.77829440000001
47,Clementi MRT Station,NIL,1.314169625,103.76577359999999
48,Chinese Garden MRT Station,NIL,1.342101479,103.7326688
49,Lakeside MRT Station,NIL,1.3440753769999998,103.7210633
50,Boon Lay MRT Station,NIL,1.338420696,103.70614549999999
51,Pioneer MRT Station,NIL,1.33782966,103.6971319
52,Joo Koon MRT Station,NIL,1.32750378,103.6785247
53,Gul Circle MRT Station,NIL,1.3192785809999998,103.6607917
54,Tuas Crescent MRT Station,NIL,1.320756144,103.6490072
55,Tuas West Road MRT Station,NIL,1.329850392,103.63929949999999
56,Tuas Link MRT Station,NIL,1.340438332,103.63666479999999
57,Expo MRT Station,NIL,1.335492099,103.9618322
58,Changi Airport MRT Station,NIL,1.357220256,103.9873046
59,HarbourFront MRT Station,TELOK BLANGAH ROAD,1.2653893840000001,103.8215302
60,Chinatown MRT Station,NEW BRIDGE ROAD,1.283964052,103.8431419
61,Clarke Quay MRT Station,EU TONG SEN STREET,1.2874521140000001,103.8461192
62,Little India MRT Station,BUKIT TIMAH ROAD,1.307698447,103.8500936
63,Farrer Park MRT Station,RACE COURSE ROAD,1.3131403,103.8547547
64,Boon Keng MRT Station,SERANGOON ROAD,1.319939577,103.8620527
65,Potong Pasir MRT Station,UPPER SERANGOON ROAD,1.331378085,103.8693635
66,Woodleigh MRT Station,UPPER SERANGOON ROAD,1.339828246,103.8709609
67,Serangoon MRT Station,SERANGOON CENTRAL,1.35104829,103.87107040000001
68,Kovan MRT Station,UPPER SERANGOON ROAD,1.35990192,103.8844947
69,Hougang MRT Station,HOUGANG CENTRAL,1.3703347240000001,103.8922618
70,Buangkok MRT Station,SENGKANG CENTRAL,1.3836941719999998,103.89305
71,Sengkang MRT Station,NIL,1.39243991,103.8957351
72,Punggol MRT Station,NIL,1.405156551,103.9026363
73,Bras Basah MRT Station,NIL,1.297563928,103.85016259999999
74,Esplanade MRT Station,NIL,1.2933588759999999,103.85416479999999
75,Promenade MRT Station,NIL,1.291707988,103.8606484
76,Nicoll Highway MRT Station,NIL,1.300174562,103.86350470000001
77,Stadium MRT Station,NIL,1.302511088,103.8744
78,Mountbatten MRT Station,MOUNTBATTEN ROAD,1.306154061,103.88304509999999
79,Dakota MRT Station,OLD AIRPORT ROAD,1.308431443,103.8892682
80,MacPherson MRT Station,PAYA LEBAR ROAD,1.326839632,103.8900079
81,Tai Seng MRT Station,NIL,1.3360495479999999,103.8885547
82,Bartley MRT Station,BARTLEY ROAD,1.3424454380000002,103.88019709999999
83,Lorong Chuan MRT Station,SERANGOON AVENUE 3,1.351531286,103.8648122
84,Marymount MRT Station,NIL,1.3489799080000002,103.839088
85,Caldecott MRT Station,TOA PAYOH RISE,1.3373472229999999,103.8395441
86,Botanic Gardens MRT Station,CLUNY PARK ROAD,1.322386995,103.8153855
87,Farrer Road MRT Station,NIL,1.317495323,103.8079666
88,Holland Village MRT Station,NIL,1.31071339,103.7957443
89,one-north MRT Station,NIL,1.300371595,103.7879245
90,Kent Ridge MRT Station,NIL,1.2932159859999999,103.78452879999999
91,Haw Par Villa MRT Station,PASIR PANJANG ROAD,1.281956887,103.781989
92,Pasir Panjang MRT Station,NIL,1.276008977,103.7920338
93,Labrador Park MRT Station,TELOK BLANGAH ROAD,1.272368386,103.8034162
94,Telok Blangah MRT Station,NIL,1.270734786,103.80988459999999
95,Bayfront MRT Station,NIL,1.282834909,103.8595969
96,Bukit Panjang MRT Station,UPPER BUKIT TIMAH ROAD,1.3795612119999998,103.76118890000001
97,Cashew MRT Station,CASHEW ROAD,1.3698460140000002,103.76431509999999
98,Hillview MRT Station,UPPER BUKIT TIMAH ROAD,1.362888457,103.7677809
99,Beauty World MRT Station,UPPER BUKIT TIMAH ROAD,1.34090149,103.77574670000001
100,King Albert Park MRT Station,BLACKMORE DRIVE,1.335893496,103.78323590000001
101,Sixth Avenue MRT Station,NIL,1.330773169,103.7965562
102,Tan Kah Kee MRT Station,BUKIT TIMAH ROAD,1.326392241,103.80654820000001
103,Stevens MRT Station,NIL,1.320329203,103.8256843
104,Rochor MRT Station,NIL,1.3036354959999998,103.85265279999999
105,Downtown MRT Station,NIL,1.279789511,103.8526443
106,Telok Ayer MRT Station,NIL,1.282500049,103.84876700000001
107,Fort Canning MRT Station,NIL,1.2928245090000001,103.8444139
108,Bencoolen MRT Station,NIL,1.2992013999999998,103.85083829999999
109,Jalan Besar MRT Station,NIL,1.30549256,103.8552371
110,Bendemeer MRT Station,NIL,1.3138743290000001,103.86306280000001
111,Geylang Bahru MRT Station,NIL,1.321566573,103.8715604
112,Mattar MRT Station,NIL,1.326482826,103.8837405
113,Ubi MRT Station,NIL,1.329962128,103.8998699
114,Kaki Bukit MRT Station,NIL,1.335322179,103.9094061
115,Bedok North MRT Station,NIL,1.334450245,103.9177959
116,Bedok Reservoir MRT Station,NIL,1.336583483,103.93348940000001
117,Tampines West MRT Station,NIL,1.345008255,103.9389568
118,Tampines East MRT Station,NIL,1.3555613359999998,103.95570529999999
119,Upper Changi MRT Station,NIL,1.341878173,103.96132850000001
